[
  {
    "id": "1",
    "name": "BAPS Shri Swaminarayan Mandir",
    "address": "460 Rockbridge Rd NW, Lilburn, GA 30047",
    "state": "Georgia",
    "image": "/placeholder.svg?height=200&width=300",
    "latitude": 33.8896,
    "longitude": -84.143,
    "googleMapsLink": "https://maps.google.com/?q=33.8896,-84.1430"
  },
  {
    "id": "2",
    "name": "Sri Siva Vishnu Temple",
    "address": "6905 Cipriano Rd, Lanham, MD 20706",
    "state": "Maryland",
    "image": "/placeholder.svg?height=200&width=300",
    "latitude": 38.9647,
    "longitude": -76.8483,
    "googleMapsLink": "https://maps.google.com/?q=38.9647,-76.8483"
  },
  {
    "id": "3",
    "name": "Hindu Temple of Minnesota",
    "address": "10530 Troy Ln N, Maple Grove, MN 55311",
    "state": "Minnesota",
    "image": "/placeholder.svg?height=200&width=300",
    "latitude": 45.1151,
    "longitude": -93.4659,
    "googleMapsLink": "https://maps.google.com/?q=45.1151,-93.4659"
  },
  {
    "id": "4",
    "name": "Shri Swaminarayan Mandir",
    "address": "1020 Tyinn St, Robbinsville, NJ 08691",
    "state": "New Jersey",
    "image": "/placeholder.svg?height=200&width=300",
    "latitude": 40.1973,
    "longitude": -74.6199,
    "googleMapsLink": "https://maps.google.com/?q=40.1973,-74.6199"
  },
  {
    "id": "5",
    "name": "Sri Venkateswara Temple",
    "address": "1230 S Pennsylvania Ave, Penn Hills, PA 15235",
    "state": "Pennsylvania",
    "image": "/placeholder.svg?height=200&width=300",
    "latitude": 40.4395,
    "longitude": -79.8282,
    "googleMapsLink": "https://maps.google.com/?q=40.4395,-79.8282"
  },
  {
    "id": "6",
    "name": "Hindu Temple of Greater Chicago",
    "address": "10915 Lemont Rd, Lemont, IL 60439",
    "state": "Illinois",
    "image": "/placeholder.svg?height=200&width=300",
    "latitude": 41.6823,
    "longitude": -87.9553,
    "googleMapsLink": "https://maps.google.com/?q=41.6823,-87.9553"
  },
  {
    "id": "7",
    "name": "Sri Meenakshi Temple",
    "address": "17130 McLean Rd, Pearland, TX 77584",
    "state": "Texas",
    "image": "/placeholder.svg?height=200&width=300",
    "latitude": 29.559,
    "longitude": -95.3228,
    "googleMapsLink": "https://maps.google.com/?q=29.5590,-95.3228"
  },
  {
    "id": "8",
    "name": "Malibu Hindu Temple",
    "address": "1600 Las Virgenes Canyon Rd, Calabasas, CA 91302",
    "state": "California",
    "image": "/placeholder.svg?height=200&width=300",
    "latitude": 34.0953,
    "longitude": -118.7081,
    "googleMapsLink": "https://maps.google.com/?q=34.0953,-118.7081"
  },
  {
    "id": "9",
    "name": "Sri Baktha Hanuman Temple",
    "address": "30687 Grand River Ave, Farmington, MI 48336-4316",
    "state": "Michigan",
    "image": "/placeholder.svg?height=200&width=300",
    "latitude": 42.452127439865286, 
    "longitude": -83.34998579226921,
    "website":"https://sbhtemple.org/Devotee/Home",
    "googleMapsLink": "https://maps.google.com/?q=42.452127439865286,-83.34998579226921"
  },
  {
    "id": "10",
    "name": "Sri Shirdi Saibaba Temple",
    "address": "28875 7 Mile, Livonia, MI 48152",
    "state": "Michigan",
    "image": "/placeholder.svg?height=200&width=300",
    "latitude": 42.42694943678657, 
    "longitude": -83.33056373402347,
    "website":"https://www.saibabami.org/",
    "googleMapsLink": "https://maps.google.com/?q=42.42694943678657, -83.33056373402347"
  },
  {
    "id": "11",
    "name": "Sri Balaji Temple of Great Lakes",
    "address": "3325 Middlebelt Rd, West Bloomfield Township, MI 48323",
    "state": "Michigan",
    "image": "/placeholder.svg?height=200&width=300",
    "latitude": 42.59081867844303, 
    "longitude": -83.32794992521677,
    "website": "http://www.sribalajivediccenter.org/index.aspx",
    "googleMapsLink": "https://maps.google.com/?q=42.59081867844303, -83.32794992521677"
  },
  
  {
    "id": "12",
    "name": "Bharatiya Temple of Metropolitan Detroit",
    "address": "6850 N Adams Rd, Troy, MI 48098",
    "state": "Michigan",
    "image": "/placeholder.svg?height=200&width=300",
    "latitude": 42.618892323194544,
    "longitude": -83.20835129085933,
    "website": "http://www.bharatiya-temple.org/",
    "googleMapsLink": "https://maps.google.com/?q=42.618892323194544,-83.20835129085933"
  },
  {
    "id": "13",
    "name": "Sri Venkateswara Temple & Cultural Center",
    "address": "26233 Taft Rd, Novi, MI 48374",
    "state": "Michigan",
    "image": "/placeholder.svg?height=200&width=300",
    "latitude": 42.48273219371483,
    "longitude": -83.49899105721319,
    "website": "http://www.svtemplemi.org/",
    "googleMapsLink": "https://maps.google.com/?q=42.48273219371483,-83.49899105721319"
  },
  {
    "id": "14",
    "name": "BAPS Shri Swaminarayan Mandir",
    "address": "3175 Canton Ctr Rd, Canton, MI 48188",
    "state": "Michigan",
    "image": "/placeholder.svg?height=200&width=300",
    "latitude": 42.283500365007285, 
    "longitude": -83.48409918588297,
    "website": "http://www.baps.org/Global-Network/North-America/Detroit.aspx",
    "googleMapsLink": "https://maps.google.com/?q=42.283500365007285,-83.48409918588297"
  },
  {
    "id": "15",
    "name": "Durga Temple",
    "address": "4215 E McNichols Rd, Detroit, MI 48212",
    "state": "Michigan",
    "image": "/placeholder.svg?height=200&width=300",
    "latitude": 42.41896895396084,
    "longitude": -83.06109267971375,
    "website": "https://durgatemple.net/",
    "googleMapsLink": "https://maps.google.com/?q=42.41896895396084,-83.06109267971375"
  },
  {
    "id": "16",
    "name": "ISKCON Detroit",
    "address": "383 Lenox St, Detroit, MI 48215",
    "state": "Michigan",
    "image": "/placeholder.svg?height=200&width=300",
    "latitude": 42.362040325563825,
    "longitude": -82.94661647970756,
    "website": "http://www.iskcondetroit.com/",
    "googleMapsLink": "https://maps.google.com/?q=42.362040325563825,-82.94661647970756"
  },
  {
    "id": "17",
    "name": "Kasi Sri Vishwanath Temple",
    "address": "1147 Elms Rd, Flint, MI 48532",
    "state": "Michigan",
    "image": "/placeholder.svg?height=200&width=300",
    "latitude": 43.012733264997955,
    "longitude": -83.80966054530258,
    "website": "http://www.kasitempleflint.org/",
    "googleMapsLink": "https://maps.google.com/?q=43.012733264997955,-83.80966054530258"
  },
  {
    "id": "18",
    "name": "Indo-American Cultural Center and Temple",
    "address": "2002 Ramona Ave, Portage, MI 49002",
    "state": "Michigan",
    "image": "/placeholder.svg?height=200&width=300",
    "latitude": 42.22080476275698,
    "longitude": -85.56608192136885,
    "website": "http://kalamazootemple.org/",
    "googleMapsLink": "https://maps.google.com/?q=42.22080476275698,-85.56608192136885"
  },
  {
    "id": "19",
    "name": "West Michigan Hindu Temple",
    "address": "4870 Whitneyville Ave SE, Ada, MI 49301",
    "state": "Michigan",
	  "image": "/placeholder.svg?height=200&width=300",
    "latitude": 42.87661526668789,
    "longitude": -85.46057634456851,
    "website": "http://www.westmichiganhindutemple.org/",
    "googleMapsLink": "https://maps.google.com/?q=42.87661526668789,-85.46057634456851"
   },
   {
    "id": "20",
    "name": "Hindu Temple Canton",
    "address": "44955 Cherry Hill Rd, Canton, MI 48188",
    "state": "Michigan",
	  "image": "/placeholder.svg?height=200&width=300",
    "latitude": 42.306152529623915,
    "longitude": -83.48277392781293,
    "website": "http://thehindutemple.org/",
    "googleMapsLink": "https://maps.google.com/?q=42.306152529623915,-83.48277392781293"
   },
   {
    "id": "21",
    "name": "ISKCON Farmington Hills - Sri Sri Radha Gopijana Vallabha Temple",
    "address": "36600 Grand River Ave, Farmington Hills, MI 48335",
    "state": "Michigan",
	  "image": "/placeholder.svg?height=200&width=300",
    "latitude": 42.46938913544754,
    "longitude": -83.40859062036739,
    "website": "https://www.iskconfarmingtonhills.com/",
    "googleMapsLink": "https://maps.google.com/?q=42.46938913544754,-83.40859062036739"
   },
   {
    "id": "22",
    "name": "Sri Sharadamba temple - SVBF North - Sringeri Vidya Bharati Foundation",
    "address": "26325 Halsted Rd, Farmington Hills, MI 48331",
    "state": "Michigan",
	  "image": "/placeholder.svg?height=200&width=300",
    "latitude": 42.48529357896893,
    "longitude": -83.4173635988907,
    "website": "https://www.svbfnorth.org/",
    "googleMapsLink": "https://maps.google.com/?q=42.48529357896893,-83.4173635988907"
   },
   {
    "id": "23",
    "name": "Bharatiya Temple of Haslett",
    "address": "955 Haslett Rd, Haslett, MI 48840",
    "state": "Michigan",
	  "image": "/placeholder.svg?height=200&width=300",
    "latitude": 42.74568221985362,
    "longitude": -84.38193308394673,
    "website": "http://www.lansingtemple.org/",
    "googleMapsLink": "https://maps.google.com/?q=42.74568221985362,-84.38193308394673"
   },
   {
    "id": "24",
    "name": "Bharatiya Temple of Haslett",
    "address": "955 Haslett Rd, Haslett, MI 48840",
    "state": "Michigan",
	  "image": "/placeholder.svg?height=200&width=300",
    "latitude": 42.74568221985362,
    "longitude": -84.38193308394673,
    "website": "http://www.lansingtemple.org/",
    "googleMapsLink": "https://maps.google.com/?q=42.74568221985362,-84.38193308394673"
   },
   {
    "id": "25",
    "name": "The Eternal Mother(Para Shakti) Temple",
    "address": "551 W Kennett Rd, Pontiac, MI 48340",
    "state": "Michigan",
	  "image": "/placeholder.svg?height=200&width=300",
    "latitude": 42.667602461319106,
    "longitude": -83.31910848251623,
    "website": "https://www.parashakthitemple.org/",
    "googleMapsLink": "https://maps.google.com/?q=42.667602461319106,-83.31910848251623"
   },
   {
    "id": "26",
    "name": "Michigan Kalibari",
    "address": "2601 E 9 Mile Rd, Warren, MI 48091",
    "state": "Michigan",
	  "image": "/placeholder.svg?height=200&width=300",
    "latitude": 42.46327780156123,
    "longitude": -83.07618795210415,
    "website": "http://www.michigankalibari.org/",
    "googleMapsLink": "https://maps.google.com/?q=42.46327780156123,-83.07618795210415"
   },
   {
    "id": "27",
    "name": "Sri Subramanya Swamy Cultural Center",
    "address": "31618 Grand River Ave, Farmington, MI 48336",
    "state": "Michigan",
	  "image": "/placeholder.svg?height=200&width=300",
    "latitude": 42.4586469401345,
    "longitude": -83.35867454529532,
    "website": "https://www.sstmi.org/",
    "googleMapsLink": "https://maps.google.com/?q=42.4586469401345,-83.35867454529532"
   },
   {
    "id": "28",
    "name": "Chinmaya Mission Tapovanam",
    "address": "6499 Calkins Rd, Flint Twp, MI 48532",
    "state": "Michigan",
	  "image": "/placeholder.svg?height=200&width=300",
    "latitude": 43.01573861752786,
    "longitude": -83.8117168011824,
    "website": "https://www.chinmayamissionflint.org/",
    "googleMapsLink": "https://maps.google.com/?q=43.01573861752786,-83.8117168011824"
   },
   {
    "id": "29",
    "name": "Tri City Hindu Temple",
    "address": "3311 Temple Ct, Saginaw, MI 48604",
    "state": "Michigan",
	  "image": "/placeholder.svg?height=200&width=300",
    "latitude": 43.48939902969407,
    "longitude": -83.98061086298303,
    "website": "http://www.tricityhindutemple.org/",
    "googleMapsLink": "https://maps.google.com/?q=43.48939902969407,-83.98061086298303"
   },
   {
    "id": "30",
    "name": "Shirdi Sai Temple",
    "address": "2652 Crooks Rd, Rochester Hills, MI 48309",
    "state": "Michigan",
	  "image": "/placeholder.svg?height=200&width=300",
    "latitude": 42.64069666512838,
    "longitude": -83.17259216434617,
    "website": "http://www.shirdisaimi.org/",
    "googleMapsLink": "https://maps.google.com/?q=42.64069666512838,-83.17259216434617"
   },
   {
    "id": "31",
    "name": "Sai Samaj of Saginaw",
    "address": "3617 Mackinaw St, Saginaw, MI 48602",
    "state": "Michigan",
	  "image": "/placeholder.svg?height=200&width=300",
    "latitude": 43.437242362459074,
    "longitude": -83.99270831374469,
    "website": "http://www.saisamajofsaginaw.com/",
    "googleMapsLink": "https://maps.google.com/?q=43.437242362459074,-83.99270831374469"
   }
]
